{
"type": "FeatureCollection",
"name": "CCC",
"crs": { "type": "name", "properties": { "name": "urn:ogc:def:crs:OGC:1.3:CRS84" } },
"features": [
{ "type": "Feature", "properties": { "Sno": 1.0, "Ward": "Dhole Patil Road,  Nagar Road Wadgaon Sheri Sangamwadi", "Type_Cente": "CCC", "Name_Cente": "Rakshak Nagar Krida Sankul", "Color_Code": 4.0, "Y": 18.550933, "X": 73.94287, "Pvt_Govt": "PMC", "Capacity": 105.0, "ICU": null, "Dr_Incharg": "Swati Mali", "Mob_No": 9284347720.0 }, "geometry": { "type": "Point", "coordinates": [ 73.94287, 18.550933 ] } },
{ "type": "Feature", "properties": { "Sno": 2.0, "Ward": "Shivajinagar Ghole Road, Kothrud Bavdhan, Aundh Baner", "Type_Cente": "CCC", "Name_Cente": "Draupadabai Khedekar hospital, Bopodi", "Color_Code": 1.0, "Y": 18.565633, "X": 73.836376, "Pvt_Govt": null, "Capacity": 50.0, "ICU": null, "Dr_Incharg": "Swati Badhiye", "Mob_No": 8806668750.0 }, "geometry": { "type": "Point", "coordinates": [ 73.836376, 18.565633 ] } },
{ "type": "Feature", "properties": { "Sno": 3.0, "Ward": "Shivajinagar Ghole Road, Kothrud Bavdhan, Aundh Baner", "Type_Cente": "CCC", "Name_Cente": "Dr Dalvi Hospital", "Color_Code": 1.0, "Y": 18.532982, "X": 73.848796, "Pvt_Govt": null, "Capacity": 50.0, "ICU": null, "Dr_Incharg": "Rekha Kokarde", "Mob_No": 7263957690.0 }, "geometry": { "type": "Point", "coordinates": [ 73.848796, 18.532982 ] } },
{ "type": "Feature", "properties": { "Sno": 4.0, "Ward": "Hadapsar Mundhava, Kondhava Yewalewadi, Wanawori Ramtekadi", "Type_Cente": "CCC", "Name_Cente": "NICMR, Baner", "Color_Code": 3.0, "Y": 18.574117, "X": 73.767006, "Pvt_Govt": null, "Capacity": 1285.0, "ICU": null, "Dr_Incharg": "Jayant Kambale", "Mob_No": 9689918850.0 }, "geometry": { "type": "Point", "coordinates": [ 73.767006, 18.574117 ] } },
{ "type": "Feature", "properties": { "Sno": 5.0, "Ward": "Sahakarnagar Dhankawadi, Sighgad Road, Warje KarveNagar", "Type_Cente": "CCC", "Name_Cente": "Laygude Hospital, Dhayari", "Color_Code": 2.0, "Y": 18.462443, "X": 73.804917, "Pvt_Govt": null, "Capacity": 50.0, "ICU": null, "Dr_Incharg": "Shubhangi Shah", "Mob_No": 9822411370.0 }, "geometry": { "type": "Point", "coordinates": [ 73.804917, 18.462443 ] } },
{ "type": "Feature", "properties": { "Sno": 6.0, "Ward": "Sahakarnagar Dhankawadi, Sighgad Road, Warje KarveNagar", "Type_Cente": "CCC", "Name_Cente": "Singhgad Institute College Hostel, Vadgaon", "Color_Code": 2.0, "Y": 18.466686, "X": 73.836274, "Pvt_Govt": null, "Capacity": 1258.0, "ICU": null, "Dr_Incharg": "Seema Mungale", "Mob_No": 9011038210.0 }, "geometry": { "type": "Point", "coordinates": [ 73.836274, 18.466686 ] } },
{ "type": "Feature", "properties": { "Sno": 7.0, "Ward": "Kasba Vishrambaghwada, Bhavani Peth, Bibwewadi", "Type_Cente": "CCC", "Name_Cente": "Sanas Ground Hostel", "Color_Code": 5.0, "Y": 18.503283, "X": 73.8526, "Pvt_Govt": null, "Capacity": 140.0, "ICU": null, "Dr_Incharg": "Amol Rathod", "Mob_No": 7276027420.0 }, "geometry": { "type": "Point", "coordinates": [ 73.8526, 18.503283 ] } }
]
}
