{
"type": "FeatureCollection",
"name": "DCHC",
"crs": { "type": "name", "properties": { "name": "urn:ogc:def:crs:OGC:1.3:CRS84" } },
"features": [
{ "type": "Feature", "properties": { "Sno": 1.0, "Ward": "Dhole Patil Road,  Nagar Road Wadgaon Sheri Sangamwadi", "Type_Cente": "DCHC", "Name_Cente": "Sasoon Hospital", "Color_Code": 3.0, "Y": 18.524638, "X": 73.871631, "Pvt_Govt": "Govt", "Capacity": 100.0, "ICU": 0.0, "Dr_Incharg": "Tambe", "Mob_No": 9423007900.0 }, "geometry": { "type": "Point", "coordinates": [ 73.871631, 18.524638 ] } },
{ "type": "Feature", "properties": { "Sno": 2.0, "Ward": "Shivajinagar Ghole Road, Kothrud Bavdhan, Aundh Baner", "Type_Cente": "DCHC", "Name_Cente": "Aundh District Hospital", "Color_Code": 1.0, "Y": 18.577971, "X": 73.804657, "Pvt_Govt": "Govt", "Capacity": 40.0, "ICU": 10.0, "Dr_Incharg": "B N Katane", "Mob_No": 9422013460.0 }, "geometry": { "type": "Point", "coordinates": [ 73.804657, 18.577971 ] } },
{ "type": "Feature", "properties": { "Sno": 3.0, "Ward": "Sahakarnagar Dhankawadi, Sighgad Road, Warje KarveNagar", "Type_Cente": "DCHC", "Name_Cente": "Bharati Hospital", "Color_Code": 2.0, "Y": 18.459344, "X": 73.857313, "Pvt_Govt": "Govt", "Capacity": 135.0, "ICU": 0.0, "Dr_Incharg": "Lalwani", "Mob_No": 9822051720.0 }, "geometry": { "type": "Point", "coordinates": [ 73.857313, 18.459344 ] } },
{ "type": "Feature", "properties": { "Sno": 4.0, "Ward": "Hadapsar Mundhava, Kondhava Yewalewadi, Wanawori Ramtekadi", "Type_Cente": "DCHC", "Name_Cente": "Symbiosis University Hospital", "Color_Code": 5.0, "Y": 18.538559, "X": 73.727423, "Pvt_Govt": "Govt", "Capacity": 250.0, "ICU": 0.0, "Dr_Incharg": "Natrajan", "Mob_No": 9822251690.0 }, "geometry": { "type": "Point", "coordinates": [ 73.727423, 18.538559 ] } },
{ "type": "Feature", "properties": { "Sno": 5.0, "Ward": "Kasba Vishrambaghwada, Bhavani Peth, Bibwewadi", "Type_Cente": "DCHC", "Name_Cente": "Dr Naidu Hospital", "Color_Code": 4.0, "Y": 18.531296, "X": 73.869122, "Pvt_Govt": "Govt", "Capacity": 100.0, "ICU": 6.0, "Dr_Incharg": "Sudhir Patsute", "Mob_No": 9689931120.0 }, "geometry": { "type": "Point", "coordinates": [ 73.869122, 18.531296 ] } },
{ "type": "Feature", "properties": { "Sno": 6.0, "Ward": "Dhole Patil Road,  Nagar Road Wadgaon Sheri Sangamwadi", "Type_Cente": "DCHC", "Name_Cente": "Ruby Hall clinic", "Color_Code": 3.0, "Y": 18.53336, "X": 73.877103, "Pvt_Govt": "Pvt", "Capacity": 40.0, "ICU": 5.0, "Dr_Incharg": "Ribeka John", "Mob_No": 9890735970.0 }, "geometry": { "type": "Point", "coordinates": [ 73.877103, 18.53336 ] } },
{ "type": "Feature", "properties": { "Sno": 7.0, "Ward": "Dhole Patil Road,  Nagar Road Wadgaon Sheri Sangamwadi", "Type_Cente": "DCHC", "Name_Cente": "Jahangir Hospital", "Color_Code": 3.0, "Y": 18.530431, "X": 73.876629, "Pvt_Govt": "Pvt", "Capacity": 23.0, "ICU": 7.0, "Dr_Incharg": "Vikram", "Mob_No": 8888821000.0 }, "geometry": { "type": "Point", "coordinates": [ 73.876629, 18.530431 ] } },
{ "type": "Feature", "properties": { "Sno": 8.0, "Ward": "Dhole Patil Road,  Nagar Road Wadgaon Sheri Sangamwadi", "Type_Cente": "DCHC", "Name_Cente": "Colambia Asia Hospital", "Color_Code": 3.0, "Y": 18.541038, "X": 73.935708, "Pvt_Govt": "Pvt", "Capacity": 22.0, "ICU": 2.0, "Dr_Incharg": "Harsh", "Mob_No": 9925640690.0 }, "geometry": { "type": "Point", "coordinates": [ 73.935708, 18.541038 ] } },
{ "type": "Feature", "properties": { "Sno": 9.0, "Ward": "Shivajinagar Ghole Road, Kothrud Bavdhan, Aundh Baner", "Type_Cente": "DCHC", "Name_Cente": "Sahyadri Hospital, Deccan", "Color_Code": 1.0, "Y": 18.513079, "X": 73.839249, "Pvt_Govt": "Pvt", "Capacity": 2.0, "ICU": 2.0, "Dr_Incharg": "Ravi Pratap", "Mob_No": 9839231840.0 }, "geometry": { "type": "Point", "coordinates": [ 73.839249, 18.513079 ] } },
{ "type": "Feature", "properties": { "Sno": 10.0, "Ward": "Shivajinagar Ghole Road, Kothrud Bavdhan, Aundh Baner", "Type_Cente": "DCHC", "Name_Cente": "Sahyadri Hospital, Kothrud", "Color_Code": 1.0, "Y": 18.507485, "X": 73.805691, "Pvt_Govt": "Pvt", "Capacity": 30.0, "ICU": 4.0, "Dr_Incharg": "Sachin Kulkarni", "Mob_No": 9673338090.0 }, "geometry": { "type": "Point", "coordinates": [ 73.805691, 18.507485 ] } },
{ "type": "Feature", "properties": { "Sno": 11.0, "Ward": "Sahakarnagar Dhankawadi, Sighgad Road, Warje KarveNagar", "Type_Cente": "DCHC", "Name_Cente": "Dinanath Mangeshkar Hospital", "Color_Code": 2.0, "Y": 18.502053, "X": 73.83225, "Pvt_Govt": "Pvt", "Capacity": 10.0, "ICU": 30.0, "Dr_Incharg": "Rajesh Bhavsar", "Mob_No": 9921912110.0 }, "geometry": { "type": "Point", "coordinates": [ 73.83225, 18.502053 ] } },
{ "type": "Feature", "properties": { "Sno": 12.0, "Ward": "Hadapsar Mundhava, Kondhava Yewalewadi, Wanawori Ramtekadi", "Type_Cente": "DCHC", "Name_Cente": "Noble Hospital, Hadapsar", "Color_Code": 5.0, "Y": 18.504929, "X": 73.927019, "Pvt_Govt": "Pvt", "Capacity": 70.0, "ICU": 9.0, "Dr_Incharg": "Raj Kodre", "Mob_No": 9823080900.0 }, "geometry": { "type": "Point", "coordinates": [ 73.927019, 18.504929 ] } },
{ "type": "Feature", "properties": { "Sno": 13.0, "Ward": "Kasba Vishrambaghwada, Bhavani Peth, Bibwewadi", "Type_Cente": "DCHC", "Name_Cente": "Surya Sahyadri Hospital", "Color_Code": 4.0, "Y": 18.521417, "X": 73.855855, "Pvt_Govt": "Pvt", "Capacity": 10.0, "ICU": 0.0, "Dr_Incharg": "Asmita Surya", "Mob_No": 9881408280.0 }, "geometry": { "type": "Point", "coordinates": [ 73.855855, 18.521417 ] } },
{ "type": "Feature", "properties": { "Sno": 14.0, "Ward": "Kasba Vishrambaghwada, Bhavani Peth, Bibwewadi", "Type_Cente": "DCHC", "Name_Cente": "Sahyadri Hospital, Bibwewadi", "Color_Code": 4.0, "Y": 18.478259, "X": 73.862139, "Pvt_Govt": "Pvt", "Capacity": 30.0, "ICU": 4.0, "Dr_Incharg": "Sachin Kulkarni", "Mob_No": 9673338090.0 }, "geometry": { "type": "Point", "coordinates": [ 73.862139, 18.478259 ] } },
{ "type": "Feature", "properties": { "Sno": 15.0, "Ward": "Kasba Vishrambaghwada, Bhavani Peth, Bibwewadi", "Type_Cente": "DCHC", "Name_Cente": "KEM Hospital", "Color_Code": 4.0, "Y": 18.519948, "X": 73.867006, "Pvt_Govt": "Pvt", "Capacity": 40.0, "ICU": 3.0, "Dr_Incharg": "Deshmukh", "Mob_No": 8788711410.0 }, "geometry": { "type": "Point", "coordinates": [ 73.867006, 18.519948 ] } }
]
}
