{
"type": "FeatureCollection",
"name": "Government_COVID_19_Hospitals",
"crs": { "type": "name", "properties": { "name": "urn:ogc:def:crs:OGC:1.3:CRS84" } },
"features": [
{ "type": "Feature", "properties": { "OBJECTID": 101, "District": "Dhule", "Address": "Chakkarbardi, Malegaon Road, Dhule", "Contact_No": "2239408, 8275335273(direct)", "No__of_Bed": 545.0, "No_of_Doct": null, "No_of_Nurs": null, "No__of_B_1": null, "ICU_Bed": null, "Available": null, "Quarantine": null, "City": null, "Name": "SBH Govt. Medical College and Hospital Dhule" }, "geometry": { "type": "Point", "coordinates": [ 74.762345400000072, 20.863953600000059, 0.0 ] } },
{ "type": "Feature", "properties": { "OBJECTID": 102, "District": "Mumbai", "Address": "Acharya Donde Marg\nParel\nMumbai, Maharashtra 400012\nIndia", "Contact_No": null, "No__of_Bed": 0.0, "No_of_Doct": null, "No_of_Nurs": null, "No__of_B_1": null, "ICU_Bed": null, "Available": null, "Quarantine": null, "City": null, "Name": "King Edward Memorial Hospital and Seth Gordhandas Sunderdas Medical College" }, "geometry": { "type": "Point", "coordinates": [ 72.842076900000052, 19.002514200000064, 0.0 ] } },
{ "type": "Feature", "properties": { "OBJECTID": 103, "District": "Mumbai", "Address": "Saat Rasta\nJacob Circle\nMumbai, Maharashtra 400011\nIndia", "Contact_No": null, "No__of_Bed": 0.0, "No_of_Doct": null, "No_of_Nurs": null, "No__of_B_1": null, "ICU_Bed": null, "Available": null, "Quarantine": null, "City": null, "Name": "Kasturba Gandhi Hospital" }, "geometry": { "type": "Point", "coordinates": [ 72.82984870000007, 18.984036400000036, 0.0 ] } },
{ "type": "Feature", "properties": { "OBJECTID": 104, "District": "Nagpur", "Address": "Central Avenue Road, Nagpur Maharashtra 440018", "Contact_No": "0724-2820100", "No__of_Bed": 536.0, "No_of_Doct": null, "No_of_Nurs": null, "No__of_B_1": null, "ICU_Bed": null, "Available": null, "Quarantine": null, "City": null, "Name": "Indira Gandhi Government Medical College and Hospital, Nagpur" }, "geometry": { "type": "Point", "coordinates": [ 79.093973500000061, 21.153418, 0.0 ] } },
{ "type": "Feature", "properties": { "OBJECTID": 105, "District": "Mumbai", "Address": "Sir JJ Group of Hospitals, Mumbai - 400 008", "Contact_No": "2205-022 23735555", "No__of_Bed": 1352.0, "No_of_Doct": null, "No_of_Nurs": null, "No__of_B_1": null, "ICU_Bed": null, "Available": null, "Quarantine": null, "City": "Mumbai", "Name": "Sir JJ Group of Hospitals, Mumbai" }, "geometry": { "type": "Point", "coordinates": [ 72.833608300000037, 18.963068400000054, 0.0 ] } },
{ "type": "Feature", "properties": { "OBJECTID": 106, "District": "Aurangabad", "Address": "Government Medical College & Hospital ,Dhanvantrinagar, Panchaki Road, Aurangabad-431001", "Contact_No": "0240-2402412-16", "No__of_Bed": 1028.0, "No_of_Doct": null, "No_of_Nurs": null, "No__of_B_1": null, "ICU_Bed": null, "Available": null, "Quarantine": null, "City": "Aurangabad", "Name": "Government Medical College & Hospital, Aurangabad" }, "geometry": { "type": "Point", "coordinates": [ 75.318153500000051, 19.889996300000064, 0.0 ] } },
{ "type": "Feature", "properties": { "OBJECTID": 107, "District": "Solapur", "Address": "Dr. V.M.Govt. Medical College and Shri. Chhatrapati Shivaji Maharaj General Hospital, opposite to District court Solapur 413003", "Contact_No": "0217-2172749432", "No__of_Bed": 763.0, "No_of_Doct": null, "No_of_Nurs": null, "No__of_B_1": null, "ICU_Bed": null, "Available": null, "Quarantine": null, "City": "Solapur", "Name": "Dr. V.M.Govt. Medical College and Shri. Chhatrapati Shivaji Maharaj General Hospital Solapur" }, "geometry": { "type": "Point", "coordinates": [ 75.909637, 17.665311, 0.0 ] } },
{ "type": "Feature", "properties": { "OBJECTID": 108, "District": "Pune", "Address": "Jai prakash Narayan Road, Near Pune Railway Station, Pune ï¿½ 411 001.", "Contact_No": "020-26128000", "No__of_Bed": 1296.0, "No_of_Doct": null, "No_of_Nurs": null, "No__of_B_1": null, "ICU_Bed": null, "Available": null, "Quarantine": null, "City": "Pune", "Name": "Sassoon General Hospital(SGH)" }, "geometry": { "type": "Point", "coordinates": [ 73.871131200000036, 18.526233200000036, 0.0 ] } },
{ "type": "Feature", "properties": { "OBJECTID": 109, "District": "Sangli", "Address": "Pandharpur road, Govt. Medical College & Hospital, Miraj", "Contact_No": "0233-2232091-99", "No__of_Bed": 310.0, "No_of_Doct": null, "No_of_Nurs": null, "No__of_B_1": null, "ICU_Bed": null, "Available": null, "Quarantine": null, "City": "Miraj", "Name": "Govt. Medical College & Hospital, Miraj" }, "geometry": { "type": "Point", "coordinates": [ 74.594888500204149, 16.850253399874532, 0.0 ] } },
{ "type": "Feature", "properties": { "OBJECTID": 110, "District": "Latur", "Address": "Government Medical College And General Hospital, Latur.Opposite to Marwadi Rajasthan High School, Near Old Railway Station, Latur.", "Contact_No": "02382-246840", "No__of_Bed": 525.0, "No_of_Doct": null, "No_of_Nurs": null, "No__of_B_1": null, "ICU_Bed": null, "Available": null, "Quarantine": null, "City": "Latur", "Name": "GOVERNMENT MEDICAL COLLEGE AND GENERAL HOSPITAL, LATUR." }, "geometry": { "type": "Point", "coordinates": [ 76.562086999815222, 18.398339300418456, 0.0 ] } },
{ "type": "Feature", "properties": { "OBJECTID": 114, "District": "Akola", "Address": "Collector Office Road, Near Ashok Vatika, Akola.M.S.444001", "Contact_No": "0724-2434401", "No__of_Bed": 720.0, "No_of_Doct": null, "No_of_Nurs": null, "No__of_B_1": null, "ICU_Bed": null, "Available": null, "Quarantine": null, "City": "Akola", "Name": "Government Medical college & Hospital, Akola." }, "geometry": { "type": "Point", "coordinates": [ 77.002631999966866, 20.711660400207336, 0.0 ] } },
{ "type": "Feature", "properties": { "OBJECTID": 117, "District": "Kolhapur", "Address": "CPR Hospital campus,dasara chowk, bhausingji road, Kolhapur , M.S.416002", "Contact_No": "0231-2640744", "No__of_Bed": 665.0, "No_of_Doct": null, "No_of_Nurs": null, "No__of_B_1": null, "ICU_Bed": null, "Available": null, "Quarantine": null, "City": "Kolhapur", "Name": "Government Medical Hospital, kolhapur" }, "geometry": { "type": "Point", "coordinates": [ 74.23601609986315, 16.70497860008237, 0.0 ] } },
{ "type": "Feature", "properties": { "OBJECTID": 119, "District": "Nanded", "Address": "Vishnupuri, Nanded", "Contact_No": "2462-235711", "No__of_Bed": 508.0, "No_of_Doct": null, "No_of_Nurs": null, "No__of_B_1": null, "ICU_Bed": null, "Available": null, "Quarantine": null, "City": "Nanded", "Name": "DR. Shankarrao Chavan Government Medical College Nanded" }, "geometry": { "type": "Point", "coordinates": [ 77.311013000049968, 19.169335000010278, 0.0 ] } },
{ "type": "Feature", "properties": { "OBJECTID": 123, "District": "Beed", "Address": "Swami Ramanand Tirth Rural Government Medical college Ambajogai Dist Beed pin 431517", "Contact_No": "02446-2470060", "No__of_Bed": 518.0, "No_of_Doct": null, "No_of_Nurs": null, "No__of_B_1": null, "ICU_Bed": null, "Available": null, "Quarantine": null, "City": "Beed", "Name": "Swami Ramanand Tirth Rural Government Medical college Ambajogai" }, "geometry": { "type": "Point", "coordinates": [ 75.754229100392706, 18.99040590011225, 0.0 ] } },
{ "type": "Feature", "properties": { "OBJECTID": 125, "District": "Chandrapur", "Address": "Government Medical College & Hospital , Chota bajar road, Chandrapur-442401", "Contact_No": "07172-250400", "No__of_Bed": 300.0, "No_of_Doct": null, "No_of_Nurs": null, "No__of_B_1": null, "ICU_Bed": null, "Available": null, "Quarantine": null, "City": "Chandrapur", "Name": "Government Medical College & Hospital, Chandrapur" }, "geometry": { "type": "Point", "coordinates": [ 79.29866729995598, 19.950816100382781, 0.0 ] } },
{ "type": "Feature", "properties": { "OBJECTID": 127, "District": "Yavatmal", "Address": "Sivil Line, Lokmata Chauk, Yavatmal - 445001", "Contact_No": "07232-245705", "No__of_Bed": 594.0, "No_of_Doct": null, "No_of_Nurs": null, "No__of_B_1": null, "ICU_Bed": null, "Available": null, "Quarantine": null, "City": "Yavatmal", "Name": "Shri. Vasantrao Naik Govt. Medical College, Yavatmal" }, "geometry": { "type": "Point", "coordinates": [ 78.132851799570972, 20.390343999675906, 0.0 ] } },
{ "type": "Feature", "properties": { "OBJECTID": 131, "District": "Gondiya", "Address": "KTS General hospital, near Neharu Chowk , Gondia", "Contact_No": "7182-234130", "No__of_Bed": 360.0, "No_of_Doct": null, "No_of_Nurs": null, "No__of_B_1": null, "ICU_Bed": null, "Available": null, "Quarantine": null, "City": "Gondiya", "Name": "KTS & BGW" }, "geometry": { "type": "Point", "coordinates": [ 80.196272899974417, 21.455227999572571, 0.0 ] } },
{ "type": "Feature", "properties": { "OBJECTID": 137, "District": "Nagpur", "Address": "Govt. Medical College and Hospital, Nagpur, Medical Square, Hanuman Nagar, Nagpur 440003", "Contact_No": "0712-2701109, 2701573", "No__of_Bed": 1886.0, "No_of_Doct": null, "No_of_Nurs": null, "No__of_B_1": null, "ICU_Bed": null, "Available": null, "Quarantine": null, "City": "Nagpur", "Name": "Govt. Medical College and Hospital, Nagpur" }, "geometry": { "type": "Point", "coordinates": [ 79.052803434272249, 21.114650243896676, 0.0 ] } },
{ "type": "Feature", "properties": { "OBJECTID": 138, "District": "Nagpur", "Address": "Near Tukdoji Putala, Hanuman nagar, Nagpur. 440003", "Contact_No": "0712-2750123", "No__of_Bed": 230.0, "No_of_Doct": null, "No_of_Nurs": null, "No__of_B_1": null, "ICU_Bed": null, "Available": null, "Quarantine": null, "City": "Nagpur", "Name": "Government Medical Hospital and Super Speciality Hospital, Nagpur" }, "geometry": { "type": "Point", "coordinates": [ 79.027819093711031, 21.159265137755995, 0.0 ] } },
{ "type": "Feature", "properties": { "OBJECTID": 139, "District": "Sangli", "Address": "Dr.Babasaheb Ambedkar Road Sangli", "Contact_No": "0233-2374651-55", "No__of_Bed": 390.0, "No_of_Doct": null, "No_of_Nurs": null, "No__of_B_1": null, "ICU_Bed": null, "Available": null, "Quarantine": null, "City": "Sangli", "Name": "PadmabhushanVasantdada Patil Government Hospital,Sangli." }, "geometry": { "type": "Point", "coordinates": [ 74.57950101588861, 16.861284380608161, 0.0 ] } }
]
}
