{
"type": "FeatureCollection",
"name": "Government_Laboratories",
"crs": { "type": "name", "properties": { "name": "urn:ogc:def:crs:OGC:1.3:CRS84" } },
"features": [
{ "type": "Feature", "properties": { "OBJECTID_1": 1, "OBJECTID_2": 1, "Name": "Shree Bhausaheb Hire Govt Medical College, Dhule", "DISTRICT": "Dhule", "Address": "Chakkarbardi, Malegaon Road, Dhule, Maharashtra 424001", "City": "Dhule", "No_Test": 0.0, "DISTRICT_1": "Dhule", "Contact_No": null, "Email_ID": null }, "geometry": { "type": "Point", "coordinates": [ 74.762345400220113, 20.863953600078617, 0.0 ] } },
{ "type": "Feature", "properties": { "OBJECTID_1": 2, "OBJECTID_2": 2, "Name": "National Institute Of Virology, Camp", "DISTRICT": "Pune", "Address": "20-A, P B No 11, Dr Ambedkar Road, Pune, 411001, 411001", "City": "Pune", "No_Test": 0.0, "DISTRICT_1": "Pune", "Contact_No": null, "Email_ID": null }, "geometry": { "type": "Point", "coordinates": [ 73.872678499912922, 18.520639199939183, 0.0 ] } },
{ "type": "Feature", "properties": { "OBJECTID_1": 3, "OBJECTID_2": 3, "Name": "King Edward Memorial Hospital and Seth Gordhandas Sunderdas Medical College", "DISTRICT": "Mumbai", "Address": "Acharya Donde Marg, Parel East, Parel, Mumbai, Maharashtra 400012", "City": "Mumbai", "No_Test": 0.0, "DISTRICT_1": "Mumbai", "Contact_No": null, "Email_ID": null }, "geometry": { "type": "Point", "coordinates": [ 72.842076900128916, 19.002514200370115, 0.0 ] } },
{ "type": "Feature", "properties": { "OBJECTID_1": 4, "OBJECTID_2": 4, "Name": "Kasturba Hospital for Infectious Diseases", "DISTRICT": "Mumbai", "Address": "Sane Guruji Marg, Arya Nagar, Chinchpokli, Mumbai, Maharashtra 400034", "City": "Mumbai", "No_Test": 0.0, "DISTRICT_1": "Mumbai", "Contact_No": null, "Email_ID": null }, "geometry": { "type": "Point", "coordinates": [ 72.829848699557886, 18.984036399560239, 0.0 ] } },
{ "type": "Feature", "properties": { "OBJECTID_1": 5, "OBJECTID_2": 5, "Name": "Indira Gandhi Government Medical College & Hospital", "DISTRICT": "Nagpur", "Address": "Mayo Hospital, Central Ave, Mominpura, Nagpur, Maharashtra 440018", "City": "Nagpur", "No_Test": 0.0, "DISTRICT_1": "Nagpur", "Contact_No": null, "Email_ID": null }, "geometry": { "type": "Point", "coordinates": [ 79.093973500276888, 21.15341800034048, 0.0 ] } },
{ "type": "Feature", "properties": { "OBJECTID_1": 6, "OBJECTID_2": 6, "Name": "Grant Medical College", "DISTRICT": "Mumbai", "Address": "J J Marg, Nagpada, Mumbai Central, Mumbai, Maharashtra 400008", "City": "Mumbai", "No_Test": 0.0, "DISTRICT_1": "Mumbai", "Contact_No": null, "Email_ID": null }, "geometry": { "type": "Point", "coordinates": [ 72.833608300083029, 18.963068400286488, 0.0 ] } },
{ "type": "Feature", "properties": { "OBJECTID_1": 7, "OBJECTID_2": 7, "Name": "Govt Medical College & Hospital Aurangabad", "DISTRICT": "Aurangabad", "Address": "University Road, Jubilee Park, Aurangabad, Maharashtra 431004", "City": "Aurangabad", "No_Test": 0.0, "DISTRICT_1": "Aurangabad", "Contact_No": null, "Email_ID": null }, "geometry": { "type": "Point", "coordinates": [ 75.318153499684342, 19.889996300289056, 0.0 ] } },
{ "type": "Feature", "properties": { "OBJECTID_1": 8, "OBJECTID_2": 8, "Name": "Dr Vaishampayan Memorial Govt Medical College", "DISTRICT": "Solapur", "Address": "Court Road Opp. District Court Rang Bhavan Chowk, Sidheshwar Peth, Solapur, Maharashtra 413003", "City": "Solapur", "No_Test": 0.0, "DISTRICT_1": "Solapur", "Contact_No": null, "Email_ID": null }, "geometry": { "type": "Point", "coordinates": [ 75.909636999647887, 17.665311000002703, 0.0 ] } },
{ "type": "Feature", "properties": { "OBJECTID_1": 9, "OBJECTID_2": 9, "Name": "B J Government Medical College", "DISTRICT": "Pune", "Address": "Jai Prakash Narayan Road, Railway Station Rd, near Pune, Maharashtra 411001", "City": "Pune", "No_Test": 0.0, "DISTRICT_1": "Pune", "Contact_No": null, "Email_ID": null }, "geometry": { "type": "Point", "coordinates": [ 73.871131200144816, 18.526233199802391, 0.0 ] } },
{ "type": "Feature", "properties": { "OBJECTID_1": 10, "OBJECTID_2": 10, "Name": "Armed Forces Medical College Pune", "DISTRICT": "Pune", "Address": "Southern Command, Pune - Solapur Rd, near Race Course, Wanowrie, Pune, Maharashtra 411040", "City": "Pune", "No_Test": 0.0, "DISTRICT_1": "Pune", "Contact_No": null, "Email_ID": null }, "geometry": { "type": "Point", "coordinates": [ 73.890096099855157, 18.504037500030677, 0.0 ] } },
{ "type": "Feature", "properties": { "OBJECTID_1": 11, "OBJECTID_2": 11, "Name": "National Institute Of Virology, Field Unit", "DISTRICT": "Mumbai", "Address": "Mumbai", "City": "Mumbai", "No_Test": 0.0, "DISTRICT_1": "Mumbai", "Contact_No": null, "Email_ID": null }, "geometry": { "type": "Point", "coordinates": [ 72.853255648529398, 19.045500809414875, 0.0 ] } }
]
}
