{
"type": "FeatureCollection",
"name": "Mumbai_Containment_Zone",
"crs": { "type": "name", "properties": { "name": "urn:ogc:def:crs:OGC:1.3:CRS84" } },
"features": [
{ "type": "Feature", "properties": { "OBJECTID": 1, "Ward": "Ward A", "Address": "Perigreen house Ballard Pier - Kumtha Street", "Y": 18.936266, "X": 72.838227 }, "geometry": { "type": "Point", "coordinates": [ 72.838226999895312, 18.936266000192347 ] } },
{ "type": "Feature", "properties": { "OBJECTID": 2, "Ward": "Ward A", "Address": "Shahid Bhagat Singh Road", "Y": 18.919664, "X": 72.829757 }, "geometry": { "type": "Point", "coordinates": [ 72.829756999836547, 18.919664000402065 ] } },
{ "type": "Feature", "properties": { "OBJECTID": 3, "Ward": "Ward D", "Address": "Ridge Road", "Y": 18.951811, "X": 72.801661 }, "geometry": { "type": "Point", "coordinates": [ 72.80166099962463, 18.951810999826648 ] } },
{ "type": "Feature", "properties": { "OBJECTID": 4, "Ward": "Ward D", "Address": "Bay View", "Y": 18.95248, "X": 72.802972 }, "geometry": { "type": "Point", "coordinates": [ 72.802972000047816, 18.952480000176365 ] } },
{ "type": "Feature", "properties": { "OBJECTID": 5, "Ward": "Ward D", "Address": "Hill View", "Y": 18.952681, "X": 72.802666 }, "geometry": { "type": "Point", "coordinates": [ 72.802666000214515, 18.952680999934614 ] } },
{ "type": "Feature", "properties": { "OBJECTID": 6, "Ward": "Ward D", "Address": "Poornima", "Y": 18.949604, "X": 72.798919 }, "geometry": { "type": "Point", "coordinates": [ 72.798918999848752, 18.949603999962108 ] } },
{ "type": "Feature", "properties": { "OBJECTID": 7, "Ward": "Ward D", "Address": "Sumangal", "Y": 18.953205, "X": 72.803549 }, "geometry": { "type": "Point", "coordinates": [ 72.803548999989175, 18.953205000266337 ] } },
{ "type": "Feature", "properties": { "OBJECTID": 8, "Ward": "Ward D", "Address": "Elcide Building - Walkeshwar Road", "Y": 18.952888, "X": 72.803211 }, "geometry": { "type": "Point", "coordinates": [ 72.803210999661928, 18.9528879999541 ] } },
{ "type": "Feature", "properties": { "OBJECTID": 9, "Ward": "Ward D", "Address": "Goenka House (A and B wing)", "Y": 18.954046, "X": 72.806764 }, "geometry": { "type": "Point", "coordinates": [ 72.806763999674899, 18.954046000010976 ] } },
{ "type": "Feature", "properties": { "OBJECTID": 10, "Ward": "Ward D", "Address": "Sankalp", "Y": 18.950354, "X": 72.802153 }, "geometry": { "type": "Point", "coordinates": [ 72.802153000361727, 18.950354000241248 ] } },
{ "type": "Feature", "properties": { "OBJECTID": 11, "Ward": "Ward D", "Address": "Sanidhya", "Y": 18.953449, "X": 72.806372 }, "geometry": { "type": "Point", "coordinates": [ 72.806371999694477, 18.953449000098146 ] } },
{ "type": "Feature", "properties": { "OBJECTID": 12, "Ward": "Ward D", "Address": "Shrikrishna Mahal", "Y": 18.918583, "X": 72.828613 }, "geometry": { "type": "Point", "coordinates": [ 72.828613000389225, 18.918583000100455 ] } },
{ "type": "Feature", "properties": { "OBJECTID": 13, "Ward": "Ward D", "Address": "Arisha Mahal", "Y": 18.954412, "X": 72.80714 }, "geometry": { "type": "Point", "coordinates": [ 72.807139999858009, 18.95441199975869 ] } },
{ "type": "Feature", "properties": { "OBJECTID": 14, "Ward": "Ward D", "Address": "Sathlug Terrace", "Y": 18.954627, "X": 72.807265 }, "geometry": { "type": "Point", "coordinates": [ 72.807264999904532, 18.954627000126493 ] } },
{ "type": "Feature", "properties": { "OBJECTID": 15, "Ward": "Ward D", "Address": "Queen Boulevard - Peddar Road", "Y": 18.954108, "X": 72.807026 }, "geometry": { "type": "Point", "coordinates": [ 72.807026000290421, 18.954108000012468 ] } },
{ "type": "Feature", "properties": { "OBJECTID": 16, "Ward": "Ward D", "Address": "New Gardenia", "Y": 18.973657, "X": 72.808993 }, "geometry": { "type": "Point", "coordinates": [ 72.80899299959799, 18.973657000410356 ] } },
{ "type": "Feature", "properties": { "OBJECTID": 17, "Ward": "Ward D", "Address": "Nilkamal", "Y": 18.973305, "X": 72.808562 }, "geometry": { "type": "Point", "coordinates": [ 72.808561999718165, 18.973305000372875 ] } },
{ "type": "Feature", "properties": { "OBJECTID": 18, "Ward": "Ward D", "Address": "Devashish", "Y": 18.956606, "X": 72.827492 }, "geometry": { "type": "Point", "coordinates": [ 72.827492000144673, 18.956605999956537 ] } },
{ "type": "Feature", "properties": { "OBJECTID": 19, "Ward": "Ward D", "Address": "Padam Building", "Y": 18.973853, "X": 72.809015 }, "geometry": { "type": "Point", "coordinates": [ 72.80901499965654, 18.973852999950907 ] } },
{ "type": "Feature", "properties": { "OBJECTID": 20, "Ward": "Ward D", "Address": "Bhagwat Niwas", "Y": 18.973131, "X": 72.809016 }, "geometry": { "type": "Point", "coordinates": [ 72.80901599970008, 18.973130999991554 ] } },
{ "type": "Feature", "properties": { "OBJECTID": 21, "Ward": "Ward D", "Address": "Vimala Mahal", "Y": 18.97285, "X": 72.809062 }, "geometry": { "type": "Point", "coordinates": [ 72.809061999904259, 18.972850000347421 ] } },
{ "type": "Feature", "properties": { "OBJECTID": 22, "Ward": "Ward D", "Address": "Jindal Bungalow", "Y": 18.973484, "X": 72.809519 }, "geometry": { "type": "Point", "coordinates": [ 72.809519000016792, 18.973484000072574 ] } },
{ "type": "Feature", "properties": { "OBJECTID": 23, "Ward": "Ward D", "Address": "Sanskriti", "Y": 18.948251, "X": 72.796338 }, "geometry": { "type": "Point", "coordinates": [ 72.796337999888181, 18.94825100040822 ] } },
{ "type": "Feature", "properties": { "OBJECTID": 24, "Ward": "Ward D", "Address": "Shivam", "Y": 18.947131, "X": 72.794663 }, "geometry": { "type": "Point", "coordinates": [ 72.794662999804359, 18.947131000207207 ] } },
{ "type": "Feature", "properties": { "OBJECTID": 25, "Ward": "Ward D", "Address": "Akashdeep", "Y": 18.947822, "X": 72.795896 }, "geometry": { "type": "Point", "coordinates": [ 72.795896000428741, 18.947821999716155 ] } },
{ "type": "Feature", "properties": { "OBJECTID": 26, "Ward": "Ward D", "Address": "Alankar Building", "Y": 18.948491, "X": 72.796734 }, "geometry": { "type": "Point", "coordinates": [ 72.796734000042761, 18.948491000065872 ] } },
{ "type": "Feature", "properties": { "OBJECTID": 27, "Ward": "Ward D", "Address": "Bhagwandas chawl", "Y": 19.00918, "X": 72.832865 }, "geometry": { "type": "Point", "coordinates": [ 72.83286500025946, 19.00918000023529 ] } },
{ "type": "Feature", "properties": { "OBJECTID": 28, "Ward": "Ward D", "Address": "Orchid enclave (A and B wing)", "Y": 18.967578, "X": 72.82366 }, "geometry": { "type": "Point", "coordinates": [ 72.823659999675328, 18.967578000133528 ] } },
{ "type": "Feature", "properties": { "OBJECTID": 29, "Ward": "Ward D", "Address": "Mustan Apartments (A and B wing)", "Y": 19.039114, "X": 72.842334 }, "geometry": { "type": "Point", "coordinates": [ 72.842333999747552, 19.039114000433415 ] } },
{ "type": "Feature", "properties": { "OBJECTID": 30, "Ward": "Ward D", "Address": "Bhola -  Heera Panna Shopping Center", "Y": 18.977417, "X": 72.810777 }, "geometry": { "type": "Point", "coordinates": [ 72.810776999931022, 18.977417000442813 ] } },
{ "type": "Feature", "properties": { "OBJECTID": 31, "Ward": "Ward D", "Address": "Seagle (A and B wing", "Y": 18.972221, "X": 72.811271 }, "geometry": { "type": "Point", "coordinates": [ 72.811270999855878, 18.972220999940646 ] } },
{ "type": "Feature", "properties": { "OBJECTID": 32, "Ward": "Ward D", "Address": "Cadbury House", "Y": 18.97642, "X": 72.80954 }, "geometry": { "type": "Point", "coordinates": [ 72.809540000031802, 18.976420000201244 ] } },
{ "type": "Feature", "properties": { "OBJECTID": 33, "Ward": "Ward D", "Address": "National Garage", "Y": 18.976365, "X": 72.807755 }, "geometry": { "type": "Point", "coordinates": [ 72.807754999655231, 18.97636499960521 ] } },
{ "type": "Feature", "properties": { "OBJECTID": 34, "Ward": "Ward D", "Address": "Vasundara Bhavan Orbit HT (A  B A and C wings)", "Y": 18.976814, "X": 72.809697 }, "geometry": { "type": "Point", "coordinates": [ 72.809696999672951, 18.976814000268746 ] } },
{ "type": "Feature", "properties": { "OBJECTID": 35, "Ward": "Ward D", "Address": "Shaanka Sheth Mansion", "Y": 18.963754, "X": 72.81295 }, "geometry": { "type": "Point", "coordinates": [ 72.812950000113858, 18.9637540000125 ] } },
{ "type": "Feature", "properties": { "OBJECTID": 36, "Ward": "Ward D", "Address": "D ward Municipal building", "Y": 18.96262, "X": 72.813205 }, "geometry": { "type": "Point", "coordinates": [ 72.813205000424603, 18.962620000101253 ] } },
{ "type": "Feature", "properties": { "OBJECTID": 37, "Ward": "Ward D", "Address": "Bhaji Falli", "Y": 18.934534, "X": 72.836148 }, "geometry": { "type": "Point", "coordinates": [ 72.836148000207913, 18.934534000324732 ] } },
{ "type": "Feature", "properties": { "OBJECTID": 38, "Ward": "Ward D", "Address": "Matru Mandir Jaslok Hospital", "Y": 18.964184, "X": 72.812769 }, "geometry": { "type": "Point", "coordinates": [ 72.81276900032708, 18.964183999848785 ] } },
{ "type": "Feature", "properties": { "OBJECTID": 39, "Ward": "Ward D", "Address": "Aditya Birla Bungalow", "Y": 18.956388, "X": 72.802075 }, "geometry": { "type": "Point", "coordinates": [ 72.802074999663603, 18.956388000357435 ] } },
{ "type": "Feature", "properties": { "OBJECTID": 40, "Ward": "Ward D", "Address": "Mitra Kunj building", "Y": 18.971572, "X": 72.809069 }, "geometry": { "type": "Point", "coordinates": [ 72.809069000209035, 18.9715719995624 ] } },
{ "type": "Feature", "properties": { "OBJECTID": 41, "Ward": "Ward D", "Address": "Fateh Manzil", "Y": 18.956252, "X": 72.81668 }, "geometry": { "type": "Point", "coordinates": [ 72.816679999739449, 18.956251999831977 ] } },
{ "type": "Feature", "properties": { "OBJECTID": 42, "Ward": "Ward D", "Address": "Shimla House", "Y": 18.958792, "X": 72.801679 }, "geometry": { "type": "Point", "coordinates": [ 72.801679000408342, 18.958791999806067 ] } },
{ "type": "Feature", "properties": { "OBJECTID": 43, "Ward": "Ward D", "Address": "Mehrina", "Y": 18.958224, "X": 72.801638 }, "geometry": { "type": "Point", "coordinates": [ 72.80163800042186, 18.958224000256564 ] } },
{ "type": "Feature", "properties": { "OBJECTID": 44, "Ward": "Ward D", "Address": "Malabar Apartments Hanumant Bhuvan", "Y": 18.958357, "X": 72.802486 }, "geometry": { "type": "Point", "coordinates": [ 72.802485999571957, 18.958356999752084 ] } },
{ "type": "Feature", "properties": { "OBJECTID": 45, "Ward": "Ward D", "Address": "Sagar Kunj", "Y": 18.953854, "X": 72.797444 }, "geometry": { "type": "Point", "coordinates": [ 72.79744400037896, 18.953853999745263 ] } },
{ "type": "Feature", "properties": { "OBJECTID": 46, "Ward": "Ward D", "Address": "Brighten", "Y": 18.958113, "X": 72.823777 }, "geometry": { "type": "Point", "coordinates": [ 72.823777000272855, 18.958112999920274 ] } },
{ "type": "Feature", "properties": { "OBJECTID": 47, "Ward": "Ward D", "Address": "Geetanjali", "Y": 18.917878, "X": 72.830705 }, "geometry": { "type": "Point", "coordinates": [ 72.830704999743318, 18.917877999981954 ] } },
{ "type": "Feature", "properties": { "OBJECTID": 48, "Ward": "Ward D", "Address": "Dariya Mahal A K Marg", "Y": 18.953889, "X": 72.795488 }, "geometry": { "type": "Point", "coordinates": [ 72.795487999751685, 18.953889000369827 ] } },
{ "type": "Feature", "properties": { "OBJECTID": 49, "Ward": "Ward D", "Address": "Najma Building", "Y": 18.960635, "X": 72.809348 }, "geometry": { "type": "Point", "coordinates": [ 72.809347999766089, 18.960635000009972 ] } },
{ "type": "Feature", "properties": { "OBJECTID": 50, "Ward": "Ward D", "Address": "Garden View", "Y": 18.949775, "X": 72.795706 }, "geometry": { "type": "Point", "coordinates": [ 72.795706000250107, 18.94977500021281 ] } },
{ "type": "Feature", "properties": { "OBJECTID": 51, "Ward": "Ward D", "Address": "Karim Building", "Y": 18.953103, "X": 72.833727 }, "geometry": { "type": "Point", "coordinates": [ 72.83372700001911, 18.953103000321903 ] } },
{ "type": "Feature", "properties": { "OBJECTID": 52, "Ward": "Ward D", "Address": "Nirmal Nivas Hermes House", "Y": 18.963245, "X": 72.809627 }, "geometry": { "type": "Point", "coordinates": [ 72.809627000222463, 18.96324500033387 ] } },
{ "type": "Feature", "properties": { "OBJECTID": 53, "Ward": "Ward D", "Address": "Vijay Sales", "Y": 18.953914, "X": 72.816617 }, "geometry": { "type": "Point", "coordinates": [ 72.816616999694418, 18.953913999659676 ] } },
{ "type": "Feature", "properties": { "OBJECTID": 54, "Ward": "Ward D", "Address": "Uman Chamber", "Y": 18.924461, "X": 72.823003 }, "geometry": { "type": "Point", "coordinates": [ 72.823002999848086, 18.924460999719713 ] } },
{ "type": "Feature", "properties": { "OBJECTID": 55, "Ward": "Ward D", "Address": "Laddabhai Mansion Angel Building", "Y": 18.953519, "X": 72.816825 }, "geometry": { "type": "Point", "coordinates": [ 72.816824999757443, 18.953519000447955 ] } },
{ "type": "Feature", "properties": { "OBJECTID": 56, "Ward": "Ward D", "Address": "Berivilla", "Y": 18.961354, "X": 72.809634 }, "geometry": { "type": "Point", "coordinates": [ 72.80963399962792, 18.961353999838707 ] } },
{ "type": "Feature", "properties": { "OBJECTID": 57, "Ward": "Ward D", "Address": "Dhan House", "Y": 18.956673, "X": 72.816853 }, "geometry": { "type": "Point", "coordinates": [ 72.816853000077231, 18.956673000175726 ] } },
{ "type": "Feature", "properties": { "OBJECTID": 58, "Ward": "Ward E", "Address": "Siddhivinayak", "Y": 19.016794, "X": 72.830344 }, "geometry": { "type": "Point", "coordinates": [ 72.830344000213302, 19.016793999896322 ] } },
{ "type": "Feature", "properties": { "OBJECTID": 59, "Ward": "Ward E", "Address": "Vasudeo Pringle Marg", "Y": 18.988172, "X": 72.834542 }, "geometry": { "type": "Point", "coordinates": [ 72.834542000430361, 18.988172000164923 ] } },
{ "type": "Feature", "properties": { "OBJECTID": 60, "Ward": "Ward E", "Address": "BMC building", "Y": 18.978044, "X": 72.829584 }, "geometry": { "type": "Point", "coordinates": [ 72.829584000398086, 18.978043999863189 ] } },
{ "type": "Feature", "properties": { "OBJECTID": 61, "Ward": "Ward E", "Address": "Stable Street BIT chawl", "Y": 18.962939, "X": 72.827882 }, "geometry": { "type": "Point", "coordinates": [ 72.827882000038016, 18.962938999601249 ] } },
{ "type": "Feature", "properties": { "OBJECTID": 62, "Ward": "Ward E", "Address": "Kushnumma Apartment", "Y": 18.976496, "X": 72.827275 }, "geometry": { "type": "Point", "coordinates": [ 72.827274999689791, 18.97649599991297 ] } },
{ "type": "Feature", "properties": { "OBJECTID": 63, "Ward": "Ward E", "Address": "Suhag Palace", "Y": 18.972672, "X": 72.825583 }, "geometry": { "type": "Point", "coordinates": [ 72.825582999765118, 18.972671999791942 ] } },
{ "type": "Feature", "properties": { "OBJECTID": 64, "Ward": "Ward E", "Address": "YMC Raod", "Y": 18.971702, "X": 72.823997 }, "geometry": { "type": "Point", "coordinates": [ 72.823996999959036, 18.971701999826621 ] } },
{ "type": "Feature", "properties": { "OBJECTID": 65, "Ward": "Ward E", "Address": "SK Haffizzudin Marg", "Y": 18.972346, "X": 72.829278 }, "geometry": { "type": "Point", "coordinates": [ 72.829277999665464, 18.972345999987169 ] } },
{ "type": "Feature", "properties": { "OBJECTID": 66, "Ward": "Ward E", "Address": "Morlane Wockhardt Hospital", "Y": 18.975205, "X": 72.82401 }, "geometry": { "type": "Point", "coordinates": [ 72.82400999962573, 18.975205000360575 ] } },
{ "type": "Feature", "properties": { "OBJECTID": 67, "Ward": "Ward E", "Address": "Dr Anandarao Nair Road", "Y": 18.974028, "X": 72.822965 }, "geometry": { "type": "Point", "coordinates": [ 72.822964999992223, 18.974028000375768 ] } },
{ "type": "Feature", "properties": { "OBJECTID": 68, "Ward": "Ward F\/S", "Address": "Narayan Ashram", "Y": 19.061087, "X": 72.898042 }, "geometry": { "type": "Point", "coordinates": [ 72.898041999782606, 19.061087000251405 ] } },
{ "type": "Feature", "properties": { "OBJECTID": 69, "Ward": "Ward F\/S", "Address": "Ganesh Galli", "Y": 18.994249, "X": 72.837285 }, "geometry": { "type": "Point", "coordinates": [ 72.837285000249778, 18.994249000354671 ] } },
{ "type": "Feature", "properties": { "OBJECTID": 70, "Ward": "Ward G\/N", "Address": "Dr Baliga Nagar", "Y": 19.042469, "X": 72.848499 }, "geometry": { "type": "Point", "coordinates": [ 72.8484990001715, 19.042468999919436 ] } },
{ "type": "Feature", "properties": { "OBJECTID": 71, "Ward": "Ward G\/N", "Address": "Jasmine Mill Road", "Y": 19.040187, "X": 72.849673 }, "geometry": { "type": "Point", "coordinates": [ 72.849673000025689, 19.040187000386709 ] } },
{ "type": "Feature", "properties": { "OBJECTID": 72, "Ward": "Ward G\/N", "Address": "Matunga Labour Camp", "Y": 19.03703, "X": 72.851681 }, "geometry": { "type": "Point", "coordinates": [ 72.85168100021906, 19.037029999628999 ] } },
{ "type": "Feature", "properties": { "OBJECTID": 73, "Ward": "Ward G\/N", "Address": "Dharavi", "Y": 19.045335, "X": 72.856228 }, "geometry": { "type": "Point", "coordinates": [ 72.856228000342981, 19.045334999698298 ] } },
{ "type": "Feature", "properties": { "OBJECTID": 74, "Ward": "Ward K\/E", "Address": "Shiv Shakti Apt. CHS", "Y": 19.072805, "X": 72.843009 }, "geometry": { "type": "Point", "coordinates": [ 72.843009000358506, 19.072804999634059 ] } },
{ "type": "Feature", "properties": { "OBJECTID": 75, "Ward": "Ward K\/E", "Address": "Shraddhanand Rd Vileparle (East)", "Y": 19.096081, "X": 72.845982 }, "geometry": { "type": "Point", "coordinates": [ 72.8459820002995, 19.096081000426238 ] } },
{ "type": "Feature", "properties": { "OBJECTID": 76, "Ward": "Ward K\/E", "Address": "Padmavati CHS", "Y": 19.093936, "X": 72.844434 }, "geometry": { "type": "Point", "coordinates": [ 72.844434000349281, 19.09393599966387 ] } },
{ "type": "Feature", "properties": { "OBJECTID": 77, "Ward": "Ward K\/E", "Address": "Azad Road - Vileparle (East)", "Y": 19.095043, "X": 72.843753 }, "geometry": { "type": "Point", "coordinates": [ 72.84375300037641, 19.095043000198189 ] } },
{ "type": "Feature", "properties": { "OBJECTID": 78, "Ward": "Ward K\/E", "Address": "Guru Arjun Dev CHS", "Y": 19.12865, "X": 72.867795 }, "geometry": { "type": "Point", "coordinates": [ 72.867795000345723, 19.12865000023811 ] } },
{ "type": "Feature", "properties": { "OBJECTID": 79, "Ward": "Ward K\/E", "Address": "Mahakali Caves Rd - Andheri (East)", "Y": 19.125345, "X": 72.866441 }, "geometry": { "type": "Point", "coordinates": [ 72.866440999848976, 19.125345000231107 ] } },
{ "type": "Feature", "properties": { "OBJECTID": 80, "Ward": "Ward K\/E", "Address": "Bindra Complex Koliwada Plot - Jogeshwari (East)", "Y": 19.131988, "X": 72.855767 }, "geometry": { "type": "Point", "coordinates": [ 72.855767000056289, 19.131987999883279 ] } },
{ "type": "Feature", "properties": { "OBJECTID": 81, "Ward": "Ward K\/E", "Address": "Slum Area Prem Nagar", "Y": 19.134883, "X": 72.858843 }, "geometry": { "type": "Point", "coordinates": [ 72.858842999985256, 19.134883000025468 ] } },
{ "type": "Feature", "properties": { "OBJECTID": 82, "Ward": "Ward K\/E", "Address": "Madras Majeed - Jogeshwari (East)", "Y": 19.134756, "X": 72.860069 }, "geometry": { "type": "Point", "coordinates": [ 72.860069000304861, 19.134755999891865 ] } },
{ "type": "Feature", "properties": { "OBJECTID": 83, "Ward": "Ward K\/E", "Address": "Franciswadi - Jogeshwari East", "Y": 19.139328, "X": 72.853165 }, "geometry": { "type": "Point", "coordinates": [ 72.853165000080708, 19.139328000204955 ] } },
{ "type": "Feature", "properties": { "OBJECTID": 84, "Ward": "Ward K\/W", "Address": "21 A wing - New Heritage CHS", "Y": 19.124736, "X": 72.84074 }, "geometry": { "type": "Point", "coordinates": [ 72.840739999593154, 19.124735999795803 ] } },
{ "type": "Feature", "properties": { "OBJECTID": 85, "Ward": "Ward K\/W", "Address": "Minarette - 6th Floor - Flat No. 603", "Y": 19.125206, "X": 72.838007 }, "geometry": { "type": "Point", "coordinates": [ 72.838007000209132, 19.12520599957503 ] } },
{ "type": "Feature", "properties": { "OBJECTID": 86, "Ward": "Ward K\/W", "Address": "Khatiaj Hightech Tower", "Y": 19.144777, "X": 72.840722 }, "geometry": { "type": "Point", "coordinates": [ 72.840721999708762, 19.144777000031468 ] } },
{ "type": "Feature", "properties": { "OBJECTID": 87, "Ward": "Ward K\/W", "Address": "Kanwal Building", "Y": 19.126898, "X": 72.82501 }, "geometry": { "type": "Point", "coordinates": [ 72.825009999997917, 19.126898000399024 ] } },
{ "type": "Feature", "properties": { "OBJECTID": 88, "Ward": "Ward K\/W", "Address": "Mateshwari Chawl", "Y": 19.126777, "X": 72.831742 }, "geometry": { "type": "Point", "coordinates": [ 72.831741999927829, 19.126776999627339 ] } },
{ "type": "Feature", "properties": { "OBJECTID": 89, "Ward": "Ward K\/W", "Address": "Flat No. 502 - Om Viraj Building - Paliram Road", "Y": 19.119201, "X": 72.843238 }, "geometry": { "type": "Point", "coordinates": [ 72.843238000436543, 19.119200999822169 ] } },
{ "type": "Feature", "properties": { "OBJECTID": 90, "Ward": "Ward K\/W", "Address": "C-304 - Redrose Raviraj Complex", "Y": 19.136866, "X": 72.829994 }, "geometry": { "type": "Point", "coordinates": [ 72.8299940002629, 19.13686600002967 ] } },
{ "type": "Feature", "properties": { "OBJECTID": 91, "Ward": "Ward K\/W", "Address": "Flat No.1503 - Dhiraj Gaurav Heights - Near Infinity Mall", "Y": 19.140753, "X": 72.833947 }, "geometry": { "type": "Point", "coordinates": [ 72.83394699970529, 19.14075300019573 ] } },
{ "type": "Feature", "properties": { "OBJECTID": 92, "Ward": "Ward K\/W", "Address": "A16 - Building - No.48 - LSMCHS - Manish Nagar - Andheri (W)", "Y": 19.127717, "X": 72.827031 }, "geometry": { "type": "Point", "coordinates": [ 72.827030999857982, 19.127717000085113 ] } },
{ "type": "Feature", "properties": { "OBJECTID": 93, "Ward": "Ward P\/S", "Address": "Kailas Ram Krupa Building - Upper Govind Nagar - Malad (East)", "Y": 19.174319, "X": 72.853755 }, "geometry": { "type": "Point", "coordinates": [ 72.853754999688761, 19.17431900024917 ] } },
{ "type": "Feature", "properties": { "OBJECTID": 94, "Ward": "Ward P\/S", "Address": "Deep Sadan Society - SV Road", "Y": 19.176079, "X": 72.844408 }, "geometry": { "type": "Point", "coordinates": [ 72.844408000116573, 19.176079000436573 ] } },
{ "type": "Feature", "properties": { "OBJECTID": 95, "Ward": "Ward P\/S", "Address": "Anmol Towers", "Y": 19.170509, "X": 72.843378 }, "geometry": { "type": "Point", "coordinates": [ 72.843378000236839, 19.170508999838376 ] } },
{ "type": "Feature", "properties": { "OBJECTID": 96, "Ward": "Ward P\/N", "Address": "Hanuman Nagar", "Y": 19.115503, "X": 72.863192 }, "geometry": { "type": "Point", "coordinates": [ 72.863191999582227, 19.115502999791204 ] } },
{ "type": "Feature", "properties": { "OBJECTID": 97, "Ward": "Ward P\/N", "Address": "Kurar", "Y": 19.189368, "X": 72.862704 }, "geometry": { "type": "Point", "coordinates": [ 72.862703999918608, 19.189367999871536 ] } },
{ "type": "Feature", "properties": { "OBJECTID": 98, "Ward": "Ward P\/N", "Address": "Quiescent Heights", "Y": 19.178943, "X": 72.83296 }, "geometry": { "type": "Point", "coordinates": [ 72.832959999899117, 19.178943000128356 ] } },
{ "type": "Feature", "properties": { "OBJECTID": 99, "Ward": "Ward P\/N", "Address": "Mindspace", "Y": 19.183959, "X": 72.832066 }, "geometry": { "type": "Point", "coordinates": [ 72.832065999645522, 19.183958999987965 ] } },
{ "type": "Feature", "properties": { "OBJECTID": 100, "Ward": "Ward P\/N", "Address": "Raheja Township", "Y": 19.179819, "X": 72.856488 }, "geometry": { "type": "Point", "coordinates": [ 72.856487999972103, 19.17981899959824 ] } },
{ "type": "Feature", "properties": { "OBJECTID": 101, "Ward": "Ward P\/N", "Address": "Interface Society", "Y": 19.185673, "X": 72.830739 }, "geometry": { "type": "Point", "coordinates": [ 72.830739000324343, 19.185672999971189 ] } },
{ "type": "Feature", "properties": { "OBJECTID": 102, "Ward": "Ward P\/N", "Address": "Farm Manor Society", "Y": 19.195122, "X": 72.841738 }, "geometry": { "type": "Point", "coordinates": [ 72.841737999878262, 19.19512200038713 ] } },
{ "type": "Feature", "properties": { "OBJECTID": 103, "Ward": "Ward P\/N", "Address": "Holy Prophet School", "Y": 19.177994, "X": 72.862187 }, "geometry": { "type": "Point", "coordinates": [ 72.862186999891662, 19.177994000178046 ] } },
{ "type": "Feature", "properties": { "OBJECTID": 104, "Ward": "Ward P\/N", "Address": "NCC Plot No. 38 - Malvani", "Y": 19.178548, "X": 72.812887 }, "geometry": { "type": "Point", "coordinates": [ 72.812887000068827, 19.178548000017315 ] } },
{ "type": "Feature", "properties": { "OBJECTID": 105, "Ward": "Ward R\/S", "Address": "Kalpataru Garden CHSL", "Y": 19.197094, "X": 72.854481 }, "geometry": { "type": "Point", "coordinates": [ 72.854480999822272, 19.197093999912397 ] } },
{ "type": "Feature", "properties": { "OBJECTID": 106, "Ward": "Ward R\/S", "Address": "Videocon Tower", "Y": 19.210393, "X": 72.865069 }, "geometry": { "type": "Point", "coordinates": [ 72.865069000367157, 19.210392999782755 ] } },
{ "type": "Feature", "properties": { "OBJECTID": 107, "Ward": "Ward R\/S", "Address": "Tirumala Krupa", "Y": 19.207329, "X": 72.819756 }, "geometry": { "type": "Point", "coordinates": [ 72.819755999668416, 19.207329000376262 ] } },
{ "type": "Feature", "properties": { "OBJECTID": 108, "Ward": "Ward R\/S", "Address": "Highland Complex", "Y": 19.208654, "X": 72.820494 }, "geometry": { "type": "Point", "coordinates": [ 72.820494000324402, 19.208653999610362 ] } },
{ "type": "Feature", "properties": { "OBJECTID": 109, "Ward": "Ward R\/S", "Address": "Acme Oasis", "Y": 19.200694, "X": 72.868134 }, "geometry": { "type": "Point", "coordinates": [ 72.868133999817189, 19.200694000173087 ] } },
{ "type": "Feature", "properties": { "OBJECTID": 110, "Ward": "Ward R\/S", "Address": "Sunshine Society", "Y": 19.193789, "X": 72.858752 }, "geometry": { "type": "Point", "coordinates": [ 72.858751999620438, 19.193788999905394 ] } },
{ "type": "Feature", "properties": { "OBJECTID": 111, "Ward": "Ward R\/S", "Address": "5 buildings of Sapphire Heights Complex", "Y": 19.196409, "X": 72.877614 }, "geometry": { "type": "Point", "coordinates": [ 72.877613999784217, 19.196408999765367 ] } },
{ "type": "Feature", "properties": { "OBJECTID": 112, "Ward": "Ward R\/N", "Address": "Valmiki Chawl", "Y": 19.183367, "X": 72.851178 }, "geometry": { "type": "Point", "coordinates": [ 72.851177999902347, 19.183367000292833 ] } },
{ "type": "Feature", "properties": { "OBJECTID": 113, "Ward": "Ward R\/N", "Address": "Padwal Chawl", "Y": 19.183367, "X": 72.851178 }, "geometry": { "type": "Point", "coordinates": [ 72.851177999902347, 19.183367000292833 ] } },
{ "type": "Feature", "properties": { "OBJECTID": 114, "Ward": "Ward R\/N", "Address": "Regal House Building", "Y": 19.209226, "X": 72.833603 }, "geometry": { "type": "Point", "coordinates": [ 72.833603000016126, 19.209226000233343 ] } },
{ "type": "Feature", "properties": { "OBJECTID": 115, "Ward": "Ward R\/N", "Address": "Pranam Housing Society", "Y": 19.221874, "X": 72.84165 }, "geometry": { "type": "Point", "coordinates": [ 72.841649999644062, 19.221873999638376 ] } },
{ "type": "Feature", "properties": { "OBJECTID": 116, "Ward": "Ward R\/N", "Address": "Parasnath Building - Sudha Park - Ghatkopar (East)", "Y": 19.074975, "X": 72.912188 }, "geometry": { "type": "Point", "coordinates": [ 72.91218799965884, 19.074974999686276 ] } }
]
}
