{
"type": "FeatureCollection",
"name": "Private_Laboratories",
"crs": { "type": "name", "properties": { "name": "urn:ogc:def:crs:OGC:1.3:CRS84" } },
"features": [
{ "type": "Feature", "properties": { "OBJECTID": 1, "OID_": 11, "Name": "IGENETIC DIAGNOSTICS", "DISTRICT": "Mumbai Suburban", "Address": "1st Floor, Krislon House, Krishanlal Marwah Marg, Ganesh Nagar, Marol, Andheri East, Mumbai, Maharashtra 400072", "City": "Mumbai", "No_Test": 0.0, "DISTRICT_1": "Mumbai", "Contact_No": null, "Email_ID": null }, "geometry": { "type": "Point", "coordinates": [ 72.887088099835978, 19.110260599647006, 0.0 ] } },
{ "type": "Feature", "properties": { "OBJECTID": 2, "OID_": 12, "Name": "InfeXn Laboratories Pvt Ltd", "DISTRICT": "Thane", "Address": "Rd Number 23, Wagle Industrial Estate, Thane West, Thane, Maharashtra 400604", "City": "Thane", "No_Test": 0.0, "DISTRICT_1": "Thane", "Contact_No": null, "Email_ID": null }, "geometry": { "type": "Point", "coordinates": [ 72.948560599991765, 19.195036199561002, 0.0 ] } },
{ "type": "Feature", "properties": { "OBJECTID": 3, "OID_": 13, "Name": "Kokilaben Dhirubhai Ambani Hospital and Medical Research Institute", "DISTRICT": "Mumbai Suburban", "Address": "Rao Saheb, Achutrao Patwardhan Marg, Four Bungalows, Andheri West, Mumbai, Maharashtra 400053", "City": "Mumbai", "No_Test": 0.0, "DISTRICT_1": "Mumbai", "Contact_No": null, "Email_ID": null }, "geometry": { "type": "Point", "coordinates": [ 72.825063600304986, 19.131254199921443, 0.0 ] } },
{ "type": "Feature", "properties": { "OBJECTID": 4, "OID_": 14, "Name": "A.G Diagnostics - Dr. Ajit Golwilkar", "DISTRICT": "Pune", "Address": "CTS No 809, F.P. 147, Nayantara Building Show Room No 01, Bhandarkar Road Opposite TVS Showroom, Pune, Maharashtra 411004", "City": "Pune", "No_Test": 0.0, "DISTRICT_1": "Pune", "Contact_No": null, "Email_ID": null }, "geometry": { "type": "Point", "coordinates": [ 73.830916500396256, 18.518804900425891, 0.0 ] } },
{ "type": "Feature", "properties": { "OBJECTID": 5, "OID_": 15, "Name": "SRL Diagnostics", "DISTRICT": "Mumbai Suburban", "Address": "Plot No 1, Prime Square building, Gaiwadi Industrial, estate, Next to Patel Petrol Pump, Opposite Mahesh Nagar, S.V. Road,, Goregaon West, Mumbai, Maharashtra 400062", "City": "Mumbai", "No_Test": 0.0, "DISTRICT_1": "Mumbai", "Contact_No": null, "Email_ID": null }, "geometry": { "type": "Point", "coordinates": [ 72.845615000332032, 19.171397599619581, 0.0 ] } },
{ "type": "Feature", "properties": { "OBJECTID": 6, "OID_": 16, "Name": "Reliance Life Sciences Pvt. Ltd", "DISTRICT": "Thane", "Address": "of MIDC, R-282, Thane - Belapur Rd, T.T.C. Industrial Area, Rabale, Navi Mumbai, Maharashtra 400701", "City": "Navi Mumbai", "No_Test": 0.0, "DISTRICT_1": "Thane", "Contact_No": null, "Email_ID": null }, "geometry": { "type": "Point", "coordinates": [ 73.004457200039781, 19.139211000287503, 0.0 ] } },
{ "type": "Feature", "properties": { "OBJECTID": 7, "OID_": 17, "Name": "Metropolis Healthcare Ltd", "DISTRICT": "Mumbai Suburban", "Address": "4th Floor, Commerical Building 1-A, Kohinoor City Mall, Off LBS Marg, Vidyavihar (West), Mumbai, Maharashtra 400070", "City": "Mumbai", "No_Test": 0.0, "DISTRICT_1": "Mumbai", "Contact_No": null, "Email_ID": null }, "geometry": { "type": "Point", "coordinates": [ 72.885720499901197, 19.082010699833972, 0.0 ] } },
{ "type": "Feature", "properties": { "OBJECTID": 8, "OID_": 18, "Name": "Suburban Diagnostics (India) Pvt. Ltd", "DISTRICT": "Mumbai Suburban", "Address": "Lokhandwala Complex Rd, SV Patel Nagar, Andheri West, Mumbai, Maharashtra 400061", "City": "Mumbai", "No_Test": 0.0, "DISTRICT_1": "Mumbai", "Contact_No": null, "Email_ID": null }, "geometry": { "type": "Point", "coordinates": [ 72.825376100326821, 19.137430199644029, 0.0 ] } },
{ "type": "Feature", "properties": { "OBJECTID": 9, "OID_": 19, "Name": "Thyrocare Technologies Ltd (Head Office)", "DISTRICT": "Thane", "Address": "1, Turbhe Rd, Juhu Nagar, T.T.C. Industrial Area, MIDC Industrial Area, Pawne, Navi Mumbai, Maharashtra 400703", "City": "Navi Mumbai", "No_Test": 0.0, "DISTRICT_1": "Thane", "Contact_No": null, "Email_ID": null }, "geometry": { "type": "Point", "coordinates": [ 72.999752500177806, 19.07425379987302, 0.0 ] } },
{ "type": "Feature", "properties": { "OBJECTID": 0, "OID_": 0, "Name": "Metropolis Healthcare Ltd", "DISTRICT": "Pune", "Address": "Ground Floor, 796, 189-B, Bhandarkar Rd, Shreeman Society, Deccan Gymkhana, Pune, Maharashtra 411004", "City": "Pune", "No_Test": 0.0, "DISTRICT_1": null, "Contact_No": null, "Email_ID": null }, "geometry": { "type": "Point", "coordinates": [ 73.834436, 18.518548, 0.0 ] } }
]
}
